LfdNr;Objektname;Objekttyp;Lat;Lon;Objekttyp2;ObjektID;BezirkID;ObjektID2;PlatteBezeichnung;PlatteBaujahr;PlatteMaterial;PlatteID
1;ÖG HAVICHHORSTSTRASSE (Alt-SP);Schule;51.963823;7.645724;;;10;12506;Tischtennisplatte;;Stein;10 12506 ÖG HAVICHHORSTSTRASSE (Alt-SP)
2;SP GESAMTSCHULE MITTE;Spielplatz;51.96438361603951;7.620556298769743;BC-1: BC-Bereich mit Ballspielangebot;21201;10;21201;Tischtennisplatte Katthagen Neubau;2018;Sonstige;10 21201 SP GESAMTSCHULE MITTE, Katthagen
3;SP GESAMTSCHULE MITTE;Spielplatz;51.96438361603951;7.620556298769743;BC-1: BC-Bereich mit Ballspielangebot;21201;10;21201;Tischtennisplatte Katthagen Spielbereich;2018;Sonstige;10 21201 SP GESAMTSCHULE MITTE, Katthagen
4;SP MARTINISCHULE;Spielplatz;51.96550915457626;7.632012370180278;BC-0: BC-Bereich ohne Ballspielangebot;21501;10;21501;Tischtennisplatte;;Stein;10 21501 SP MARTINISCHULE
5;SP HANSAPLATZ;Spielplatz;51.95518043766086;7.644796262701368;ABC-1: ABC-Bereich mit Ballspielangebot;22402;10;22402;Tischtennisplatte;;Stein;10 22402 SP HANSAPLATZ
6;SP SOESTER STRASSE;Spielplatz;51.95371797088697;7.63772883984793;BC-0: BC-Bereich ohne Ballspielangebot;22404;10;22404;Tischtennisplatte;;Stein;10 22404 SP SOESTER STRASSE
7;SP OSTSTRASSE;Spielplatz;51.962249992215376;7.6467038747142055;ABC-0: ABC-Bereich ohne Ballspielangebot;22503;10;22503;Tischtennisplatte;;Stein;10 22503 SP OSTSTRASSE
8;SP ZUMSANDEPLATZ;Spielplatz;51.95941322400803;7.641618966259975;ABC-1: ABC-Bereich mit Ballspielangebot;22504;10;22504;Tischtennisplatte;;Beton;10 22504 SP ZUMSANDEPLATZ
10;SP DIEPENBROCKSTRASSE;Spielplatz;51.958141120280416;7.640548041767211;BC-0: BC-Bereich ohne Ballspielangebot;22505;10;22505;Tischtennisplatte;;Stein;10 22505 SP DIEPENBROCKSTRASSE
11;SP RJASANSTRASSE;Spielplatz;51.97224011785281;7.634454298844638;A-0: A-Bereich ohne Ballspielangebot;22606;10;22606;Tischtennisplatte;2002;Beton;10 22606 SP RJASANSTRASSE
13;SP TANNENBERGSTRASSE;Spielplatz;51.97374846813245;7.628548818755587;BC-1: BC-Bereich mit Ballspielangebot;22706;10;22706;Tischtennisplatte;;Stein;10 22706 SP TANNENBERGSTRASSE
14;SP SCHULSTRASSE;Spielplatz;51.96954424611485;7.614079399960718;BC-0: BC-Bereich ohne Ballspielangebot;22707;10;22707;Tischtennisplatte;2013;Beton;10 22707 SP SCHULSTRASSE
15;SP MELCHERSSTRASSE;Spielplatz;51.97134021849594;7.616247716857416;BC-0: BC-Bereich ohne Ballspielangebot;22708;10;22708;Tischtennisplatte;;Stein;10 22708 SP MELCHERSSTRASSE
16;SP WICHERNSTRASSE;Spielplatz;51.97327798930288;7.624319933175306;BC-0: BC-Bereich ohne Ballspielangebot;22709;10;22709;Tischtennisplatte;;Beton;10 22709 SP WICHERNSTRASSE
17;SP MARTIN-NIEMÖLLER-PARK;Spielplatz;51.972860868250045;7.616350998028483;ABC-0: ABC-Bereich ohne Ballspielangebot;22710;10;22710;Tischtennisplatte;;Stein;10 22710 SP MARTIN-NIEMÖLLER-PARK
18;SP ALTER ZOO;Spielplatz;51.961138804037944;7.612204331225958;ABC-1: ABC-Bereich mit Ballspielangebot;22901;10;22901;Tischtennisplatte rund;2023;Beton;10 22901 SP ALTER ZOO
19;SP WILHELMSTRASSE;Spielplatz;51.966983389809194;7.610519291095772;ABC-1: ABC-Bereich mit Ballspielangebot;22902;10;22902;Tischtennisplatte;;Sonstige;10 22902 SP WILHELMSTRASSE
20;SP HORSTMARER LANDWEG;Spielplatz;51.97014802706031;7.597931759588226;BC-1: BC-Bereich mit Ballspielangebot;25201;10;25201;Tischtennisplatte;;Beton;10 25201 SP HORSTMARER LANDWEG
21;SP AUF DEM DRAUN;Spielplatz;51.952768996576864;7.5930352945214326;BC-0: BC-Bereich ohne Ballspielangebot;25202;10;25202;Tischtennisplatte;;Beton;10 25202 SP AUF DEM DRAUN
22;VG STAUFENPLATZ;Öffentlicher Platz;51.963995;7.641744;;;10;52523;Tischtennisplatte;;Stein;10 52523 VG STAUFENPLATZ
23;ANNETTE-VON-DROSTE-HÜLSHOFF-GYMNASIUM;Schule;51.95795472089719;7.624200250730548;Gymnasium;91;10;61101;Tischtennisplatte (rechts);;Stahl, verzinkt;10 61101 ANNETTE-VON-DROSTE-HÜLSHOFF-GYMNASIUM, Grüne Gasse 38
24;ANNETTE-VON-DROSTE-HÜLSHOFF-GYMNASIUM;Schule;51.95795472089719;7.624200250730548;Gymnasium;91;10;61101;Tischtennisplatte (links);;Stahl, verzinkt;10 61101 ANNETTE-VON-DROSTE-HÜLSHOFF-GYMNASIUM, Grüne Gasse 38
25;ANNETTE-VON-DROSTE-HÜLSHOFF-GYMNASIUM;Schule;51.95795472089719;7.624200250730548;Gymnasium;91;10;61101;Tischtennisplatte (rechts);;Stahl, verzinkt;10 61101 ANNETTE-VON-DROSTE-HÜLSHOFF-GYMNASIUM, Grüne Gasse 38
26;ANNETTE-VON-DROSTE-HÜLSHOFF-GYMNASIUM;Schule;51.95795472089719;7.624200250730548;Gymnasium;91;10;61101;Tischtennisplatte (links);;Beton;10 61101 ANNETTE-VON-DROSTE-HÜLSHOFF-GYMNASIUM, Grüne Gasse 38
27;ANNETTE-VON-DROSTE-HÜLSHOFF-GYMNASIUM;Schule;51.95795472089719;7.624200250730548;Gymnasium;91;10;61101;Tischtennisplatte (rechts);;Beton;10 61101 ANNETTE-VON-DROSTE-HÜLSHOFF-GYMNASIUM, Grüne Gasse 38
28;GESAMT-SCHULE MÜNSTER-MITTE;Schule;51.9640856126378;7.619676758007121;Gesamtschule;93;10;61201;Tischtennisplatte Innenhof, beim Beet;;Beton;10 61201 GESAMT-SCHULE MÜNSTER-MITTE, Jüdefelder Straße 10
29;GESAMT-SCHULE MÜNSTER-MITTE;Schule;51.9640856126378;7.619676758007121;Gesamtschule;93;10;61201;Tischtennisplatte Innenhof, Mitte;;Beton;10 61201 GESAMT-SCHULE MÜNSTER-MITTE, Jüdefelder Straße 10
30;GESAMT-SCHULE MÜNSTER-MITTE;Schule;51.9640856126378;7.619676758007121;Gesamtschule;93;10;61201;Tischtennisplatte Innenhof, bei Schaukel;;Beton;10 61201 GESAMT-SCHULE MÜNSTER-MITTE, Jüdefelder Straße 10
31;ERICH-KLAUSENER-REALSCHULE;Schule;51.95209943734531;7.609309332002956;Realschule;76;10;62101;Tischtennisplatte 4 am Südtrakt;;Sonstige;10 62101 ERICH-KLAUSENER-REALSCHULE, Bismarckallee 53
32;ERICH-KLAUSENER-REALSCHULE;Schule;51.95209943734531;7.609309332002956;Realschule;76;10;62101;Tischtennisplatte 5 Ostrand  Schulhof;;Sonstige;10 62101 ERICH-KLAUSENER-REALSCHULE, Bismarckallee 53
33;JOHANNISSCHULE;Schule;51.95250305344428;7.622243181011138;Grundschule;17;10;62202;Tischtennisplatte;;Stein;10 62202 JOHANNISSCHULE, VOGEL-VON-FALKENSTEIN-STR. 4
34;OVERBERGSCHULE;Schule;51.95647740612795;7.644859509195523;Grundschule;23;10;62401;Tischtennisplatte;;Beton;10 62401 OVERBERGSCHULE
35;OVERBERGSCHULE;Schule;51.95647740612795;7.644859509195523;Grundschule;23;10;62401;Tischtennisplatte;;Beton;10 62401 OVERBERGSCHULE
36;BODELSCHWINGH-SCHULE;Spielplatz;51.9597602800455;7.644705773979225;BC-0: BC-Bereich ohne Ballspielangebot;22501;10;62501;Tischtennisplatte;;Stein;10 62501 BODELSCHWINGH-SCHULE, Gutenbergstr.14
37;RATSGYMNASIUM;Schule;51.966887522654;7.638012410635285;Gymnasium;83;10;62601;Tischtennisplatte (vorne);;Beton;10 62601 RATSGYMNASIUM, BOHLWEG 7
38;RATSGYMNASIUM;Schule;51.966887522654;7.638012410635285;Gymnasium;83;10;62601;Tischtennisplatte (hinten);;Beton;10 62601 RATSGYMNASIUM, BOHLWEG 7
39;MARTIN-LUTHER-SCHULE;Spielplatz;51.96970779143315;7.627649901227481;BC-0: BC-Bereich ohne Ballspielangebot;22704;10;62702;Tischtennisplatte;;Stein;10 62702 MARTIN-LUTHER-SCHULE, COERDESTRASSE 8
40;MARTIN-LUTHER-SCHULE;Spielplatz;51.96970779143315;7.627649901227481;BC-0: BC-Bereich ohne Ballspielangebot;22704;10;62702;Tischtennisplatte;;Beton;10 62702 MARTIN-LUTHER-SCHULE, COERDESTRASSE 8
41;SCHILLER-GYMNASIUM;Schule;51.96881729957317;7.620782962034212;Gymnasium;82;10;62703;Tischtennisplatte (links);;Beton;10 62703 SCHILLER-GYMNASIUM, GERTRUDENSTRASSE 5
42;SCHILLER-GYMNASIUM;Schule;51.96881729957317;7.620782962034212;Gymnasium;82;10;62703;Tischtennisplatte (mitte);;Beton;10 62703 SCHILLER-GYMNASIUM, GERTRUDENSTRASSE 5
43;REALSCHULE IM KREUZVIERTEL;Schule;51.97391847050406;7.620437281135641;Realschule;68;10;62704;Tischtennisplatte (von vorne 1);;Beton;10 62704 REALSCHULE IM KREUZVIERTEL, Finkenstr.76
44;REALSCHULE IM KREUZVIERTEL;Schule;51.97391847050406;7.620437281135641;Realschule;68;10;62704;Tischtennisplatte (von vorne 2);;Beton;10 62704 REALSCHULE IM KREUZVIERTEL, Finkenstr.76
45;REALSCHULE IM KREUZVIERTEL;Schule;51.97391847050406;7.620437281135641;Realschule;68;10;62704;Tischtennisplatte (von vorne 3);;Beton;10 62704 REALSCHULE IM KREUZVIERTEL, Finkenstr.76
46;REALSCHULE IM KREUZVIERTEL;Schule;51.97391847050406;7.620437281135641;Realschule;68;10;62704;Tischtennisplatte (von vorne 4);;Beton;10 62704 REALSCHULE IM KREUZVIERTEL, Finkenstr.76
47;REALSCHULE IM KREUZVIERTEL;Schule;51.97391847050406;7.620437281135641;Realschule;68;10;62704;Tischtennisplatte (von vorne 5);;Beton;10 62704 REALSCHULE IM KREUZVIERTEL, Finkenstr.76
48;KREUZSCHULE;Schule;51.969643339365895;7.6237844352095845;Grundschule;32;10;62705;Tischtennisplatte;;Stein;10 62705 KREUZSCHULE, SPIELPLATZ, KAMPSTR.15
49;GYMNASIUM PAULINUM;Schule;51.959861046573224;7.6173622004754105;Gymnasium;88;10;62901;Tischtennisplatte (links);;Beton;10 62901 GYMNASIUM PAULINUM
50;GYMNASIUM PAULINUM;Schule;51.959861046573224;7.6173622004754105;Gymnasium;88;10;62901;Tischtennisplatte (mitte);;Beton;10 62901 GYMNASIUM PAULINUM
51;GYMNASIUM PAULINUM;Schule;51.959861046573224;7.6173622004754105;Gymnasium;88;10;62901;Tischtennisplatte (rechts);;Beton;10 62901 GYMNASIUM PAULINUM
52;SCHULE AN DER BECKSTRASSE 26;Schule;51.958802680562535;7.592485146847508;;;10;63101;Tischtennisplatte;;Beton;10 63101 SCHULE AN DER BECKSTRASSE 26, BECKSTR.24-26
53;D.-BONHOEFFER-SCHULE;Schule;51.94189867974506;7.6048107952772215;Grundschule;41;10;63102;Tischtennisplatte;;Stein;10 63102 D.-BONHOEFFER-SCHULE, BONHOEFFERSTRASSE 50
54;D.-BONHOEFFER-SCHULE;Schule;51.94189867974506;7.6048107952772215;Grundschule;41;10;63102;Tischtennisplatte;;Beton;10 63102 D.-BONHOEFFER-SCHULE, BONHOEFFERSTRASSE 50
55;D.-BONHOEFFER-SCHULE;Schule;51.94189867974506;7.6048107952772215;Grundschule;41;10;63102;Tischtennisplatte rund;;Beton;10 63102 D.-BONHOEFFER-SCHULE, BONHOEFFERSTRASSE 50
57;THERESIENSCHULE;Spielplatz;51.955995696298466;7.594090580604656;A-1: A-Bereich mit Ballspielangebot;25205;10;65201;Tischtennisplatte;;Beton;10 65201 THERESIENSCHULE, Sentruper Höhe 5
58;THERESIENSCHULE;Spielplatz;51.955995696298466;7.594090580604656;A-1: A-Bereich mit Ballspielangebot;25205;10;65201;Tischtennisplatte;;Beton;10 65201 THERESIENSCHULE, Sentruper Höhe 5
59;UNI-KLINIK: SPIELANGEBOT in der HELEN-KELLER-SCHULE;Schule;51.95880222694001;7.592494593104714;;;10;85210;Tischtennisplatte;;Sonstige;10 85210 UNI-KLINIK: SPIELANGEBOT in der HELEN-KELLER-SCHULE, Schmeddingstraße 54
60;SP KAPPENBERGER DAMM;Spielplatz;51.938637429011685;7.610146403639356;BC-0: BC-Bereich ohne Ballspielangebot;23202;20;23202;Tischtennisplatte;;Beton;20 23202 SP KAPPENBERGER DAMM
61;SP MATTHIAS-CLAUDIUS-SCHULE;Spielplatz;51.93895946806052;7.612134708274046;BC-0: BC-Bereich ohne Ballspielangebot;23203;20;23203;Tischtennisplatte (Schaukel);;Beton;20 23203 SP MATTHIAS-CLAUDIUS-SCHULE
62;SP MATTHIAS-CLAUDIUS-SCHULE;Spielplatz;51.93895946806052;7.612134708274046;BC-0: BC-Bereich ohne Ballspielangebot;23203;20;23203;Tischtennisplatte (Treppe);;Beton;20 23203 SP MATTHIAS-CLAUDIUS-SCHULE
63;SP GRÜNER GRUND;Spielplatz;51.94102543887177;7.613871494669641;BC-0: BC-Bereich ohne Ballspielangebot;23205;20;23205;Tischtennisplatte 1;;Beton;20 23205 SP GRÜNER GRUND
64;SP GRÜNER GRUND;Spielplatz;51.94102543887177;7.613871494669641;BC-0: BC-Bereich ohne Ballspielangebot;23205;20;23205;Tischtennisplatte 2;;Beton;20 23205 SP GRÜNER GRUND
65;SP GEISTSCHULE;Spielplatz;51.93876807338719;7.621416283463022;BC-0: BC-Bereich ohne Ballspielangebot;23209;20;23209;Tischtennisplatte rund;;Beton;20 23209 SP GEISTSCHULE
66;SP GEISTSCHULE;Spielplatz;51.93876807338719;7.621416283463022;BC-0: BC-Bereich ohne Ballspielangebot;23209;20;23209;Tischtennisplatte (rechts);;Beton;20 23209 SP GEISTSCHULE
67;SP GEISTSCHULE;Spielplatz;51.93876807338719;7.621416283463022;BC-0: BC-Bereich ohne Ballspielangebot;23209;20;23209;Tischtennisplatte (links);;Beton;20 23209 SP GEISTSCHULE
71;SP DAHLWEG;Spielplatz;51.94343515141237;7.626158704564626;ABC-1: ABC-Bereich mit Ballspielangebot;23303;20;23303;Tischtennisplatte;;Beton;20 23303 SP DAHLWEG
72;SP HERDINGSTRASSE;Spielplatz;51.94588355487556;7.627728234502779;BC-0: BC-Bereich ohne Ballspielangebot;23304;20;23304;Tischtennisplatte;;Beton;20 23304 SP HERDINGSTRASSE
73;SP SCHÜTZENHOF;Spielplatz;51.94539828208819;7.6242919487273015;BC-1: BC-Bereich mit Ballspielangebot;23305;20;23305;Tischtennisplatte;;Beton;20 23305 SP SCHÜTZENHOF
74;SP SEPPENRADEWEG;Spielplatz;51.93027403898673;7.603654987532194;BC-0: BC-Bereich ohne Ballspielangebot;23407;20;23407;Tischtennisplatte;;Beton;20 23407 SP SEPPENRADEWEG
75;SP SPICHERNSTRASSE;Spielplatz;51.93563211629424;7.623020888434983;ABC-1: ABC-Bereich mit Ballspielangebot;23409;20;23409;Tischtennisplatte rund;;Beton;20 23409 SP SPICHERNSTRASSE
77;SP SCHWARZER KAMP;Spielplatz;51.92638031469528;7.5681066702616375;BC-0: BC-Bereich ohne Ballspielangebot;25402;20;25402;Tischtennisplatte (Bank);;Beton;20 25402 SP SCHWARZER KAMP
78;SP CHRISTOPH-BERNHARD-GRABEN (SP WESTENKAMP);Spielplatz;51.930186760435596;7.5736380560827055;A-1: A-Bereich mit Ballspielangebot;25405;20;25405;Tischtennisplatte;;Beton;20 25405 SP CHRISTOPH-BERNHARD-GRABEN (SP WESTENKAMP)
79;SP HEROLDSTRASSE (HEIDBUSCH);Spielplatz;51.91991349319137;7.573855797354559;ABC-1: ABC-Bereich mit Ballspielangebot;25406;20;25406;Tischtennisplatte;;Beton;20 25406 SP HEROLDSTRASSE (HEIDBUSCH)
81;SP IM LANDSCHAFTSPARK MECKLENBECK;Spielplatz;51.932729587424525;7.57296293180037;A-1: A-Bereich mit Ballspielangebot;25409;20;25409;Tischtennisplatte rund;;Beton;20 25409 SP IM LANDSCHAFTSPARK MECKLENBECK
83;SP AM KÄMPKEN;Spielplatz;51.920512487815046;7.526085502601129;ABC-1: ABC-Bereich mit Ballspielangebot;25605;20;25605;Tischtennisplatte;;Beton;20 25605 SP AM KÄMPKEN
84;SP AM KÄMPKEN;Spielplatz;51.920512487815046;7.526085502601129;ABC-1: ABC-Bereich mit Ballspielangebot;25605;20;25605;Tischtennisplatte (Hügel);;Beton;20 25605 SP AM KÄMPKEN
85;SP HAUS WIEK;Spielplatz;51.915994749535095;7.523207489876134;A-0: A-Bereich ohne Ballspielangebot;25607;20;25607;Tischtennisplatte;;Beton;20 25607 SP HAUS WIEK
86;SP IM DAHL;Spielplatz;51.913432418809535;7.640315836030658;A-1: A-Bereich mit Ballspielangebot;29602;20;29602;Tischtennisplatte;;Beton;20 29602 SP IM DAHL
87;SP HANSES-KETTELER-STRASSE;Spielplatz;51.90408273622195;7.650500015671857;ABC-1: ABC-Bereich mit Ballspielangebot;29605;20;29605;Tischtennisplatte;;Beton;20 29605 SP HANSES-KETTELER-STRASSE
88;SP HÖLDERLINWEG;Spielplatz;51.90013826738865;7.62908272596569;BC-0: BC-Bereich ohne Ballspielangebot;29704;20;29704;Tischtennisplatte;;Beton;20 29704 SP HÖLDERLINWEG
89;SP MALTESERSTRASSE;Spielplatz;51.8971905219838;7.635301830945582;ABC-1: ABC-Bereich mit Ballspielangebot;29705;20;29705;Tischtennisplatte;;Beton;20 29705 SP MALTESERSTRASSE
90;SP AN DER ALTEN KIRCHE;Spielplatz;51.905054495975946;7.6323211815871534;A-1: A-Bereich mit Ballspielangebot;29709;20;29709;Tischtennisplatte (links);;Beton;20 29709 SP AN DER ALTEN KIRCHE
91;SP LANGE KUHLE;Spielplatz;51.88433269604511;7.6117456618259975;A-1: A-Bereich mit Ballspielangebot;29801;20;29801;Tischtennisplatte;;Beton;20 29801 SP LANGE KUHLE
92;SP ALTE FURT;Spielplatz;51.88439857915087;7.606926944998162;BC-0: BC-Bereich ohne Ballspielangebot;29804;20;29804;Tischtennisplatte (Fahrradständer);;Beton;20 29804 SP ALTE FURT
93;SP ALTE FURT;Spielplatz;51.88439857915087;7.606926944998162;BC-0: BC-Bereich ohne Ballspielangebot;29804;20;29804;Tischtennisplatte (Gebäude);;Beton;20 29804 SP ALTE FURT
94;SP ARNIKAWEG;Spielplatz;51.88213500703422;7.60371937882194;BC-0: BC-Bereich ohne Ballspielangebot;29805;20;29805;Tischtennisplatte;;Beton;20 29805 SP ARNIKAWEG
95;HERMANN-SCHULE;Schule;51.944911064498434;7.626344302645134;Grundschule;35;20;63301;Tischtennisplatte;;Beton;20 63301 HERMANN-SCHULE, DAHLWEG 66
96;HERMANN-SCHULE;Schule;51.944911064498434;7.626344302645134;Grundschule;35;20;63301;Tischtennisplatte;;Beton;20 63301 HERMANN-SCHULE, DAHLWEG 66
97;GOTTFRIED-VON-CAPPENBERG-SCHULE;Spielplatz;51.93374575129137;7.611614710697902;BC-0: BC-Bereich ohne Ballspielangebot;23408;20;63401;Tischtennisplatte (vorne);;Beton;20 63401 GOTTFRIED-VON-CAPPENBERG-SCHULE, GLATZER WEG 9
98;GOTTFRIED-VON-CAPPENBERG-SCHULE;Spielplatz;51.93374575129137;7.611614710697902;BC-0: BC-Bereich ohne Ballspielangebot;23408;20;63401;Tischtennisplatte (hinten);;Beton;20 63401 GOTTFRIED-VON-CAPPENBERG-SCHULE, GLATZER WEG 9
99;ERNA-DE-VRIES-SCHULE;Schule;51.93478165882587;7.6232799417329575;Realschule;74;20;63402;Tischtennisplatte (links);;Beton;20 63402 ERNA-DE-VRIES-SCHULE, SPICHERNSTRASSE 17
100;ERNA-DE-VRIES-SCHULE;Schule;51.93478165882587;7.6232799417329575;Realschule;74;20;63402;Tischtennisplatte (rechts);;Beton;20 63402 ERNA-DE-VRIES-SCHULE, SPICHERNSTRASSE 17
101;ERNA-DE-VRIES-SCHULE;Schule;51.93478165882587;7.6232799417329575;Realschule;74;20;63402;Tischtennisplatte (vorne);;Beton;20 63402 ERNA-DE-VRIES-SCHULE, SPICHERNSTRASSE 17
102;ERNA-DE-VRIES-SCHULE;Schule;51.93478165882587;7.6232799417329575;Realschule;74;20;63402;Tischtennisplatte (hinten);;Beton;20 63402 ERNA-DE-VRIES-SCHULE, SPICHERNSTRASSE 17
103;PETER-WUST-SCHULE;Schule;51.93287130176683;7.5804595917113735;Grundschule;1;20;65401;Tischtennisplatte rund;;Beton;20 65401 PETER-WUST-SCHULE, DINGBÄNGERWEG 80
104;PETER-WUST-SCHULE;Schule;51.93287130176683;7.5804595917113735;Grundschule;1;20;65401;Tischtennisplatte;;Beton;20 65401 PETER-WUST-SCHULE, DINGBÄNGERWEG 80
105;PETER-WUST-SCHULE;Schule;51.93287130176683;7.5804595917113735;Grundschule;1;20;65401;Tischtennisplatte (Schulhof);;Beton;20 65401 PETER-WUST-SCHULE, DINGBÄNGERWEG 80
106;LUDGERUSSCHULE ALBACHTEN;Schule;51.92300355264066;7.527841457881592;Grundschule;5;20;65601;Tischtennisplatte (Spielfläche);;Beton;20 65601 LUDGERUSSCHULE ALBACHTEN, HOHE GEIST 8
107;LUDGERUSSCHULE ALBACHTEN;Schule;51.92300355264066;7.527841457881592;Grundschule;5;20;65601;Tischtennisplatte rund;;Beton;20 65601 LUDGERUSSCHULE ALBACHTEN, HOHE GEIST 8
108;LUDGERUSSCHULE ALBACHTEN;Schule;51.92300355264066;7.527841457881592;Grundschule;5;20;65601;Tischtennisplatte (Fahrradständer);;Beton;20 65601 LUDGERUSSCHULE ALBACHTEN, HOHE GEIST 8
109;LUDGERUSSCHULE ALBACHTEN;Schule;51.92300355264066;7.527841457881592;Grundschule;5;20;65601;Tischtennisplatte (Gebäude);;Beton;20 65601 LUDGERUSSCHULE ALBACHTEN, HOHE GEIST 8
110;PRIMUSSCHULE BERG FIDEL;Schule;51.925042969999474;7.616445039849797;;;20;69101;"Tischtennisplatte (Wande ""Kamel"")";;Beton;20 69101 PRIMUSSCHULE BERG FIDEL, HOGENBERGSTRASSE 160
111;PRIMUSSCHULE BERG FIDEL;Schule;51.925042969999474;7.616445039849797;;;20;69101;Tischtennisplatte;;Beton;20 69101 PRIMUSSCHULE BERG FIDEL, HOGENBERGSTRASSE 160
112;HAUPTSCHULE HILTRUP;Schule;51.901465503300976;7.641326787521912;Hauptschule;65;20;69601;Tischtennisplatte;;Beton;20 69601 HAUPTSCHULE HILTRUP, WESTFALENSTRASSE 199
113;HAUPTSCHULE HILTRUP;Schule;51.901465503300976;7.641326787521912;Hauptschule;65;20;69601;Tischtennisplatte;;Beton;20 69601 HAUPTSCHULE HILTRUP, WESTFALENSTRASSE 199
114;HAUPTSCHULE HILTRUP;Schule;51.901465503300976;7.641326787521912;Hauptschule;65;20;69601;Tischtennisplatte;;Beton;20 69601 HAUPTSCHULE HILTRUP, WESTFALENSTRASSE 199
115;HAUPTSCHULE HILTRUP;Schule;51.901465503300976;7.641326787521912;Hauptschule;65;20;69601;Tischtennisplatte;;Beton;20 69601 HAUPTSCHULE HILTRUP, WESTFALENSTRASSE 199
116;HAUPTSCHULE HILTRUP;Schule;51.901465503300976;7.641326787521912;Hauptschule;65;20;69601;Tischtennisplatte;;Beton;20 69601 HAUPTSCHULE HILTRUP, WESTFALENSTRASSE 199
117;CLEMENS-+PAUL-GERHARDT-SCHULE;Schule;51.90643504259296;7.646713479372256;Grundschule;42;20;69604;Tischtennisplatte rund;;Beton;20 69604 CLEMENS-+PAUL-GERHARDT-SCHULE, UNCKEL-/BODELSCHWINGH-STRASSE
118;CLEMENS-+PAUL-GERHARDT-SCHULE;Schule;51.90643504259296;7.646713479372256;Grundschule;42;20;69604;Tischtennisplatte (am Bauwerksgerüst);;Beton;20 69604 CLEMENS-+PAUL-GERHARDT-SCHULE, UNCKEL-/BODELSCHWINGH-STRASSE
119;CLEMENS-+PAUL-GERHARDT-SCHULE;Schule;51.90643504259296;7.646713479372256;Grundschule;42;20;69604;Tischtennisplatte (Schulhof Mitte);;Beton;20 69604 CLEMENS-+PAUL-GERHARDT-SCHULE, UNCKEL-/BODELSCHWINGH-STRASSE
120;CLEMENS-+PAUL-GERHARDT-SCHULE;Schule;51.90643504259296;7.646713479372256;Grundschule;42;20;69604;Tischtennisplatte (Johannesschule links);;Beton;20 69604 CLEMENS-+PAUL-GERHARDT-SCHULE, UNCKEL-/BODELSCHWINGH-STRASSE
121;CLEMENS-+PAUL-GERHARDT-SCHULE;Schule;51.90643504259296;7.646713479372256;Grundschule;42;20;69604;Tischtennisplatte (Johannesschule rechts);;Beton;20 69604 CLEMENS-+PAUL-GERHARDT-SCHULE, UNCKEL-/BODELSCHWINGH-STRASSE
122;LUDGERUSSCHULE HILTR;Schule;51.90364923934733;7.626570507326741;Grundschule;31;20;69701;Tischtennisplatte (rechts);;Beton;"20 69701 LUDGERUSSCHULE HILTR; A.D.ALTEN KIRCHE 161"
123;LUDGERUSSCHULE HILTR;Schule;51.90364923934733;7.626570507326741;Grundschule;31;20;69701;Tischtennisplatte (mitte);;Beton;"20 69701 LUDGERUSSCHULE HILTR; A.D.ALTEN KIRCHE 161"
124;LUDGERUSSCHULE HILTR;Schule;51.90364923934733;7.626570507326741;Grundschule;31;20;69701;Tischtennisplatte (links);;Beton;"20 69701 LUDGERUSSCHULE HILTR; A.D.ALTEN KIRCHE 161"
125;GRUNDSCHULE LOEVELINGLOH;Schule;51.89416340870317;7.57782883261359;Grundschule;37;20;69802;Tischtennisplatte;;Beton;20 69802 GRUNDSCHULE LOEVELINGLOH, WIEDAUSTRASSE 114
126;BETREUTER SPIELPLATZ SÜDPARK 'ABI';Sonstige;51.94911807317884;7.626656477579451;;;20;83301;Tischtennisplatte;;Beton;20 83301 BETREUTER SPIELPLATZ SÜDPARK 'ABI', DAHLWEG 3
127;SP STETTINER STRASSE;Spielplatz;51.97181148563841;7.6461656909960585;BC-0: BC-Bereich ohne Ballspielangebot;24601;30;24601;Tischtennisplatte;;Beton;30 24601 SP STETTINER STRASSE
128;SP VIVALDISTRASSE;Spielplatz;51.98029865513253;7.642616313434438;BC-0: BC-Bereich ohne Ballspielangebot;24605;30;24605;Tischtennisplatte;;Beton;30 24605 SP VIVALDISTRASSE
130;SP THOMAS-MORUS-SCHULE;Spielplatz;51.9744980388965;7.644832096479794;BC-0: BC-Bereich ohne Ballspielangebot;24607;30;24607;Tischtennisplatte (rechts);;Beton;30 24607 SP THOMAS-MORUS-SCHULE
131;SP THOMAS-MORUS-SCHULE;Spielplatz;51.9744980388965;7.644832096479794;BC-0: BC-Bereich ohne Ballspielangebot;24607;30;24607;Tischtennisplatte (links);;Beton;30 24607 SP THOMAS-MORUS-SCHULE
132;SP STADTPARK WIENBURG;Spielplatz;51.9790537456476;7.627008669710859;A-1: A-Bereich mit Ballspielangebot;24707;30;24707;Tischtennisplatte rund;2018;Beton;30 24707 SP STADTPARK WIENBURG
133;SP DREIZEHNER-STRASSE;Spielplatz;51.98425109468388;7.610213493519696;A-0: A-Bereich ohne Ballspielangebot;24708;30;24708;Tischtennisplatte;2002;Beton;30 24708 SP DREIZEHNER-STRASSE
134;SP POTSTIEGE;Spielplatz;51.965092077108075;7.579445699276074;BC-0: BC-Bereich ohne Ballspielangebot;25101;30;25101;Tischtennisplatte;;Beton;30 25101 SP POTSTIEGE
135;SP MÖLLMANNSWEG;Spielplatz;51.96277993935313;7.585502115852763;ABC-1: ABC-Bereich mit Ballspielangebot;25103;30;25103;Tischtennisplatte;;Beton;30 25103 SP MÖLLMANNSWEG
137;SP BRUCHFELDWEG;Spielplatz;51.97463736019435;7.561118728871046;BC-0: BC-Bereich ohne Ballspielangebot;25106;30;25106;Tischtennisplatte;;Beton;30 25106 SP BRUCHFELDWEG
138;SP MERGELBERG-NORD;Spielplatz;51.96942930521263;7.560495383933216;A-0: A-Bereich ohne Ballspielangebot;25117;30;25117;Tischtennisplatte (Balancierseil);2001;Beton;30 25117 SP MERGELBERG-NORD
139;SP MERGELBERG-NORD;Spielplatz;51.96942930521263;7.560495383933216;A-0: A-Bereich ohne Ballspielangebot;25117;30;25117;Tischtennisplatte (Unterstand);2001;Beton;30 25117 SP MERGELBERG-NORD
140;SP KORBMACHERWEG;Spielplatz;51.952527818101224;7.527377915838521;ABC-0: ABC-Bereich ohne Ballspielangebot;25708;30;25708;Tischtennisplatte;;Beton;30 25708 SP KORBMACHERWEG
141;SP SCHULCAMPUS ROXEL;Spielplatz;51.9547179012786;7.528408434192344;BC-0: BC-Bereich ohne Ballspielangebot;25709;30;25709;Tischtennisplatte rund;;Beton;30 25709 SP SCHULCAMPUS ROXEL
142;SP SCHULCAMPUS ROXEL;Spielplatz;51.9547179012786;7.528408434192344;BC-0: BC-Bereich ohne Ballspielangebot;25709;30;25709;Tischtennisplatte (von links 1);;Beton;30 25709 SP SCHULCAMPUS ROXEL
143;SP SCHULCAMPUS ROXEL;Spielplatz;51.9547179012786;7.528408434192344;BC-0: BC-Bereich ohne Ballspielangebot;25709;30;25709;Tischtennisplatte (von links 2);;Beton;30 25709 SP SCHULCAMPUS ROXEL
144;SP SCHULCAMPUS ROXEL;Spielplatz;51.9547179012786;7.528408434192344;BC-0: BC-Bereich ohne Ballspielangebot;25709;30;25709;Tischtennisplatte (von links 3);;Beton;30 25709 SP SCHULCAMPUS ROXEL
145;SP SCHULCAMPUS ROXEL;Spielplatz;51.9547179012786;7.528408434192344;BC-0: BC-Bereich ohne Ballspielangebot;25709;30;25709;Tischtennisplatte (von links 4);;Beton;30 25709 SP SCHULCAMPUS ROXEL
146;SP SCHULCAMPUS ROXEL;Spielplatz;51.9547179012786;7.528408434192344;BC-0: BC-Bereich ohne Ballspielangebot;25709;30;25709;Tischtennisplatte;;Stein;30 25709 SP SCHULCAMPUS ROXEL
147;SP AM HAUS NIENBERGE;Spielplatz;51.99882881198519;7.55662213402744;BC-0: BC-Bereich ohne Ballspielangebot;25807;30;25807;Tischtennisplatte;;Beton;30 25807 SP AM HAUS NIENBERGE
148;SP HÄGER;Spielplatz;52.020265118464145;7.562267307471802;BC-0: BC-Bereich ohne Ballspielangebot;25809;30;25809;Tischtennisplatte;;Beton;30 25809 SP HÄGER, Hägerstraße
149;SP NERZWEG;Spielplatz;51.99979158076226;7.641068186064878;ABC-1: ABC-Bereich mit Ballspielangebot;26106;30;26106;Tischtennisplatte;;Beton;30 26106 SP NERZWEG
150;SP NERZWEG;Spielplatz;51.99979158076226;7.641068186064878;ABC-1: ABC-Bereich mit Ballspielangebot;26106;30;26106;Tischtennisplatte;;Beton;30 26106 SP NERZWEG
151;SP AN DER MEERWIESE-MITTE;Spielplatz;51.98874409006625;7.650425628321932;BC-0: BC-Bereich ohne Ballspielangebot;26112;30;26112;Tischtennisplatte;;Beton;30 26112 SP AN DER MEERWIESE-MITTE
152;SP KILLINGSTRASSE;Spielplatz;51.999687397653204;7.594063050631306;BC-0: BC-Bereich ohne Ballspielangebot;26302;30;26302;Tischtennisplatte;;Beton;30 26302 SP KILLINGSTRASSE
156;SP ALTE SCHANZE;Spielplatz;51.99989201985218;7.589874420758313;BC-0: BC-Bereich ohne Ballspielangebot;26309;30;26309;Tischtennisplatte;;Sonstige;30 26309 SP ALTE SCHANZE
157;SP NORDMARK;Spielplatz;52.0027865979658;7.6012380442678635;A-0: A-Bereich ohne Ballspielangebot;26313;30;26313;Tischtennisplatte;;Beton;30 26313 SP NORDMARK
158;VG HAMANNPLATZ;Sonstige;51.99358054566289;7.648398271798084;;;30;56122;Tischtennisplatte;;Beton;30 56122 VG HAMANNPLATZ
159;VG SCHMALOERS BUSCH;Sonstige;51.998678707768505;7.5917743141237874;;;30;56351;Tischtennisplatte;;Beton;30 56351 VG SCHMALOERS BUSCH
160;DREIFALTIGKEITSSCHULE;Spielplatz;51.97488683009171;7.615205359954028;BC-0: BC-Bereich ohne Ballspielangebot;24701;30;64701;Tischtennisplatte West;;Sonstige;30 64701 DREIFALTIGKEITSSCHULE, FRIESENRING 25
161;DREIFALTIGKEITSSCHULE;Spielplatz;51.97488683009171;7.615205359954028;BC-0: BC-Bereich ohne Ballspielangebot;24701;30;64701;Tischtennisplatte Ost;;Sonstige;30 64701 DREIFALTIGKEITSSCHULE, FRIESENRING 25
162;PASCAL-GYMNASIUM;Schule;51.97596158858148;7.626065204282213;Gymnasium;84;30;64702;Tischtennisplatte;;;30 64702 PASCAL-GYMNASIUM, Uppenkampstiege 17
163;PASCAL-GYMNASIUM;Schule;51.97596158858148;7.626065204282213;Gymnasium;84;30;64702;Tischtennisplatte;;;30 64702 PASCAL-GYMNASIUM, Uppenkampstiege 17
164;PASCAL-GYMNASIUM;Schule;51.97596158858148;7.626065204282213;Gymnasium;84;30;64702;Tischtennisplatte;;;30 64702 PASCAL-GYMNASIUM, Uppenkampstiege 17
165;MICHAELSCHULE;Schule;51.96779034608303;7.581220091385148;Grundschule;26;30;65101;Tischtennisplatte;;Beton;30 65101 MICHAELSCHULE, Appelbreistiege 40
166;MICHAELSCHULE;Schule;51.96779034608303;7.581220091385148;Grundschule;26;30;65101;Tischtennisplatte rund;;Beton;30 65101 MICHAELSCHULE, Appelbreistiege 40
167;MICHAELSCHULE;Schule;51.96779034608303;7.581220091385148;Grundschule;26;30;65101;Tischtennisplatte (Tischtennisplatte rund);;Beton;30 65101 MICHAELSCHULE, Appelbreistiege 40
168;MICHAELSCHULE;Schule;51.96779034608303;7.581220091385148;Grundschule;26;30;65101;Tischtennisplatte;;Beton;30 65101 MICHAELSCHULE, Appelbreistiege 40
169;MOSAIKSCHULE;Schule;51.965602882284706;7.566765351652201;;;30;65103;Tischtennisplatte (Straße);;Beton;30 65103 MOSAIKSCHULE, DIECKMANNSTRASSE 131
170;MOSAIKSCHULE;Schule;51.965602882284706;7.566765351652201;;;30;65103;Tischtennisplatte;;Beton;30 65103 MOSAIKSCHULE, DIECKMANNSTRASSE 131
171;FREIHERR-VOM-STEIN-GYMNASIUM;Schule;51.961480873295564;7.568601109515213;Gymnasium;90;30;65104;Tischtennisplatte rund;;Beton;30 65104 FREIHERR-VOM-STEIN-GYMNASIUM, DIECKMANNSTR.141
172;FREIHERR-VOM-STEIN-GYMNASIUM;Schule;51.961480873295564;7.568601109515213;Gymnasium;90;30;65104;Tischtennisplatte (Tischtennisplatte rund);;Beton;30 65104 FREIHERR-VOM-STEIN-GYMNASIUM, DIECKMANNSTR.141
173;FREIHERR-VOM-STEIN-GYMNASIUM;Schule;51.961480873295564;7.568601109515213;Gymnasium;90;30;65104;Tischtennisplatte (Sportplatz);;Beton;30 65104 FREIHERR-VOM-STEIN-GYMNASIUM, DIECKMANNSTR.141
174;FREIHERR-VOM-STEIN-GYMNASIUM;Schule;51.961480873295564;7.568601109515213;Gymnasium;90;30;65104;Tischtennisplatte (Basketballständer);;Beton;30 65104 FREIHERR-VOM-STEIN-GYMNASIUM, DIECKMANNSTR.141
175;MARIENSCHULE ROXEL;Schule;51.95513493425613;7.531328977084703;Grundschule;29;30;65703;Tischtennisplatte;;Beton;30 65703 MARIENSCHULE ROXEL, AUF DEM DORN 17
176;MARIENSCHULE ROXEL;Schule;51.95513493425613;7.531328977084703;Grundschule;29;30;65703;Tischtennisplatte;;Beton;30 65703 MARIENSCHULE ROXEL, AUF DEM DORN 17
177;AUGUSTIN-WIBBELT-SCHULE;Schule;51.9550310440076;7.531884932897995;;;30;65704;Tischtennisplatte (Basketballkorb);;Beton;30 65704 AUGUSTIN-WIBBELT-SCHULE, AUF DEM DORN 14, ROXEL
178;AUGUSTIN-WIBBELT-SCHULE;Schule;51.9550310440076;7.531884932897995;;;30;65704;Tischtennisplatte (Turmkombination);;Beton;30 65704 AUGUSTIN-WIBBELT-SCHULE, AUF DEM DORN 14, ROXEL
179;ANNETTE-VON-DROSTE-HÜLSHOFF-SCHULE NIENBERGE;Schule;51.99584715300072;7.56013864693255;Grundschule;43;30;65801;Tischtennisplatte;;Beton;30 65801 ANNETTE-VON-DROSTE-HÜLSHOFF-SCHULE NIENBERGE
180;ANNETTE-VON-DROSTE-HÜLSHOFF-SCHULE NIENBERGE;Schule;51.99584715300072;7.56013864693255;Grundschule;43;30;65801;Tischtennisplatte (Tischtennisplatte rund);;Beton;30 65801 ANNETTE-VON-DROSTE-HÜLSHOFF-SCHULE NIENBERGE
181;ANNETTE-VON-DROSTE-HÜLSHOFF-SCHULE NIENBERGE;Schule;51.99584715300072;7.56013864693255;Grundschule;43;30;65801;Tischtennisplatte rund;;Beton;30 65801 ANNETTE-VON-DROSTE-HÜLSHOFF-SCHULE NIENBERGE
182;MELANCHTONSCHULE;Schule;51.99334789225802;7.645777996782428;;;30;66102;Tischtennisplatte;;Beton;30 66102 MELANCHTONSCHULE, KÖNIGSBERGER STRASSE 91
183;HAUPTSCHULE COERDE;Schule;51.99706431956884;7.647727064538258;Hauptschule;60;30;66103;Tischtennisplatte (vorne);;Beton;30 66103 HAUPTSCHULE COERDE, DACHSLEITE 32
184;HAUPTSCHULE COERDE;Schule;51.99706431956884;7.647727064538258;Hauptschule;60;30;66103;Tischtennisplatte (hinten);;Beton;30 66103 HAUPTSCHULE COERDE, DACHSLEITE 32
185;HAUPTSCHULE COERDE;Schule;51.99706431956884;7.647727064538258;Hauptschule;60;30;66103;Tischtennisplatte (Treppe);;Beton;30 66103 HAUPTSCHULE COERDE, DACHSLEITE 32
186;NORBERTSCHULE;Schule;51.989458474302985;7.649120640845163;Grundschule;24;30;66104;Tischtennisplatte;;Beton;30 66104 NORBERTSCHULE, AN DER MEERWIESE 7
187;NORBERTSCHULE;Schule;51.989458474302985;7.649120640845163;Grundschule;24;30;66104;Tischtennisplatte;;Beton;30 66104 NORBERTSCHULE, AN DER MEERWIESE 7
188;GERTRUDEN-/P-SCHNEIDER-SCHULE;Schule;51.9985674870865;7.6125954733233625;;;30;66201;Tischtennisplatte rund;2006;Beton;30 66201 GERTRUDEN-/P-SCHNEIDER-SCHULE,PASTORSESCH 34
189;KOMPASSSCHULE;Schule;51.99281630551734;7.6162608774908485;Förderschule;54;30;66202;Tischtennisplatte;;Beton;30 66202 KOMPASSSCHULE, BRÖDERICHWEG 36
190;KOMPASSSCHULE;Schule;51.99281630551734;7.6162608774908485;Förderschule;54;30;66202;Tischtennisplatte;;Sonstige;30 66202 KOMPASSSCHULE, BRÖDERICHWEG 36
191;GRUNDSCHULE-KINDERH.-W;Schule;51.99682706427417;7.593655441706337;Grundschule;6;30;66301;Tischtennisplatte (links);;Beton;"30 66301 GRUNDSCHULE-KINDERH.-W; J.-BECKMANN-STR.33"
192;GRUNDSCHULE-KINDERH.-W;Schule;51.99682706427417;7.593655441706337;Grundschule;6;30;66301;Tischtennisplatte (links vorne);;Beton;"30 66301 GRUNDSCHULE-KINDERH.-W; J.-BECKMANN-STR.33"
193;GRUNDSCHULE-KINDERH.-W;Schule;51.99682706427417;7.593655441706337;Grundschule;6;30;66301;Tischtennisplatte (links hinten);;Beton;"30 66301 GRUNDSCHULE-KINDERH.-W; J.-BECKMANN-STR.33"
194;GRUNDSCHULE-KINDERH.-W;Schule;51.99682706427417;7.593655441706337;Grundschule;6;30;66301;Tischtennisplatte (rechts vorne);;Beton;"30 66301 GRUNDSCHULE-KINDERH.-W; J.-BECKMANN-STR.33"
195;GRUNDSCHULE-KINDERH.-W;Schule;51.99682706427417;7.593655441706337;Grundschule;6;30;66301;Tischtennisplatte (rechts hinten);;Beton;"30 66301 GRUNDSCHULE-KINDERH.-W; J.-BECKMANN-STR.33"
196;WALDSCHULE KINDERHAUS;Schule;52.00120675823876;7.61054156397201;Hauptschule;63;30;66302;Tischtennisplatte;;Beton;30 66302 WALDSCHULE KINDERHAUS, GROSSE WIESE 14
197;WALDSCHULE KINDERHAUS;Schule;52.00120675823876;7.61054156397201;Hauptschule;63;30;66302;Tischtennisplatte (Schaukel);;Beton;30 66302 WALDSCHULE KINDERHAUS, GROSSE WIESE 14
198;WALDSCHULE KINDERHAUS;Schule;52.00120675823876;7.61054156397201;Hauptschule;63;30;66302;Tischtennisplatte (links);;Beton;30 66302 WALDSCHULE KINDERHAUS, GROSSE WIESE 14
199;WALDSCHULE KINDERHAUS;Schule;52.00120675823876;7.61054156397201;Hauptschule;63;30;66302;Tischtennisplatte (rechts);;Beton;30 66302 WALDSCHULE KINDERHAUS, GROSSE WIESE 14
200;WALDSCHULE KINDERHAUS;Schule;52.00120675823876;7.61054156397201;Hauptschule;63;30;66302;Tischtennisplatte;;;30 66302 WALDSCHULE KINDERHAUS, GROSSE WIESE 14
201;SCHULZENTR. KI-HAUS: GRUND+REALSCHULE+GYMN.;Schule;51.99887129107541;7.60553060036486;;;30;66303;Tischtennisplatte;;Beton;30 66303 SCHULZENTR. KI-HAUS: GRUND+REALSCHULE+GYMN., v-Humboldt-Str.14
202;SCHULZENTR. KI-HAUS: GRUND+REALSCHULE+GYMN.;Schule;51.99887129107541;7.60553060036486;;;30;66303;Tischtennisplatte (vorne);;Beton;30 66303 SCHULZENTR. KI-HAUS: GRUND+REALSCHULE+GYMN., v-Humboldt-Str.14
203;SCHULZENTR. KI-HAUS: GRUND+REALSCHULE+GYMN.;Schule;51.99887129107541;7.60553060036486;;;30;66303;Tischtennisplatte (hinten);;Beton;30 66303 SCHULZENTR. KI-HAUS: GRUND+REALSCHULE+GYMN., v-Humboldt-Str.14
204;GRUNDSCHULE SPRAKEL;Schule;52.03781992510306;7.615558006772101;Grundschule;36;30;66801;Tischtennisplatte;;;30 66801 GRUNDSCHULE SPRAKEL, IN DER AU 3
205;GRUNDSCHULE SPRAKEL;Schule;52.03781992510306;7.615558006772101;Grundschule;36;30;66801;Tischtennisplatte;;;30 66801 GRUNDSCHULE SPRAKEL, IN DER AU 3
209;SP HUBERTISTRASSE;Spielplatz;51.95359070312566;7.650327468874284;ABC-1: ABC-Bereich mit Ballspielangebot;24401;40;24401;Tischtennisplatte;2021;Sonstige;40 24401 SP HUBERTISTRASSE
210;SP MAURITZ-LINDENWEG;Spielplatz;51.960799797887454;7.658321554179112;ABC-0: ABC-Bereich ohne Ballspielangebot;24408;40;24408;Tischtennisplatte rund;2018;Beton;40 24408 SP MAURITZ-LINDENWEG
211;SP WIENER STRASSE;Spielplatz;51.96964215992893;7.652583940586829;BC-1: BC-Bereich mit Ballspielangebot;24502;40;24502;Tischtennisplatte rund;;Beton;40 24502 SP WIENER STRASSE
212;SP PÖTTERHOEK;Spielplatz;51.972250236754974;7.655706056919073;BC-0: BC-Bereich ohne Ballspielangebot;24506;40;24506;Tischtennisplatte;;Beton;40 24506 SP PÖTTERHOEK
213;SP ADMIRAL-SPEE-STRASSE;Spielplatz;51.967614988790764;7.662138005517565;BC-0: BC-Bereich ohne Ballspielangebot;24507;40;24507;Tischtennisplatte;;Beton;40 24507 SP ADMIRAL-SPEE-STRASSE
214;SP ADMIRAL-SPEE-STRASSE;Spielplatz;51.967614988790764;7.662138005517565;BC-0: BC-Bereich ohne Ballspielangebot;24507;40;24507;Tischtennisplatte;;;40 24507 SP ADMIRAL-SPEE-STRASSE
215;SP MARGARETENSCHULE;Spielplatz;51.95243408523824;7.673768520503377;BC-0: BC-Bereich ohne Ballspielangebot;27103;40;27103;Tischtennisplatte;;Beton;40 27103 SP MARGARETENSCHULE, BRENTANOWEG 18
216;SP PARKALLEE;Spielplatz;51.961184306236;7.680721627617647;BC-0: BC-Bereich ohne Ballspielangebot;27105;40;27105;Tischtennisplatte;;Beton;40 27105 SP PARKALLEE
217;SP HEGERSKAMP;Spielplatz;51.94808753801053;7.672421274422977;ABC-1: ABC-Bereich mit Ballspielangebot;27106;40;27106;Tischtennisplatte;;Beton;40 27106 SP HEGERSKAMP
218;SP HANS-BREDOW-WEG;Spielplatz;51.957523668875844;7.670935191508772;A-0: A-Bereich ohne Ballspielangebot;27108;40;27108;Tischtennisplatte;;;40 27108 SP HANS-BREDOW-WEG
219;SP AM HORNBACH;Spielplatz;52.00269229622538;7.717043986634241;A-1: A-Bereich mit Ballspielangebot;27703;40;27703;Tischtennisplatte rund;2001;Beton;40 27703 SP AM HORNBACH
220;SP TOMKOTTEN;Spielplatz;51.983178049481566;7.7069968122266275;A-1: A-Bereich mit Ballspielangebot;27708;40;27708;Tischtennisplatte (rechts);;Beton;40 27708 SP TOMKOTTEN
221;SP TOMKOTTEN;Spielplatz;51.983178049481566;7.7069968122266275;A-1: A-Bereich mit Ballspielangebot;27708;40;27708;Tischtennisplatte (links);;Beton;40 27708 SP TOMKOTTEN
222;SP AM LÜTKEBACH;Spielplatz;51.94064534907499;7.656250403220775;BC-0: BC-Bereich ohne Ballspielangebot;28101;40;28101;Tischtennisplatte;2004;Beton;40 28101 SP AM LÜTKEBACH
223;SP KRÖGERWEG;Spielplatz;51.92487838137793;7.655721116590505;ABC-1: ABC-Bereich mit Ballspielangebot;28103;40;28103;Tischtennisplatte (vorne);;Beton;40 28103 SP KRÖGERWEG
224;SP KRÖGERWEG;Spielplatz;51.92487838137793;7.655721116590505;ABC-1: ABC-Bereich mit Ballspielangebot;28103;40;28103;Tischtennisplatte (hinten);;Beton;40 28103 SP KRÖGERWEG
225;SP ANGELMODDER WEG;Spielplatz;51.92802491758967;7.6904411830467785;A-1: A-Bereich mit Ballspielangebot;28204;40;28204;Tischtennisplatte rund;;Beton;40 28204 SP ANGELMODDER WEG
226;SP BIRKENHEIDE II;Spielplatz;51.921526165750336;7.6811913590811915;A-1: A-Bereich mit Ballspielangebot;28603;40;28603;Tischtennisplatte;;Beton;40 28603 SP BIRKENHEIDE II
227;SP VOGELROHRSHEIDE;Spielplatz;51.91725000746279;7.681999073923934;BC-1: BC-Bereich mit Ballspielangebot;28605;40;28605;Tischtennisplatte rund;;Beton;40 28605 SP VOGELROHRSHEIDE
228;SP HAUS ANGELMODDE;Spielplatz;51.92041606431939;7.70135254240687;BC-0: BC-Bereich ohne Ballspielangebot;28609;40;28609;Tischtennisplatte;;Beton;40 28609 SP HAUS ANGELMODDE
229;SP OSTPREUSSENSTRASSE;Spielplatz;51.91799343544099;7.67646360256968;BC-0: BC-Bereich ohne Ballspielangebot;28611;40;28611;Tischtennisplatte;2020;Sonstige;40 28611 SP OSTPREUSSENSTRASSE
230;SP AM BERLER KAMP;Spielplatz;51.91779412694339;7.718942324458779;BC-0: BC-Bereich ohne Ballspielangebot;28709;40;28709;Tischtennisplatte;;Beton;40 28709 SP AM BERLER KAMP
231;SP GOLDBRINK;Spielplatz;51.92322426545522;7.72258341182386;BC-0: BC-Bereich ohne Ballspielangebot;28710;40;28710;Tischtennisplatte;;Beton;40 28710 SP GOLDBRINK
234;SP DAHLIENWEG;Spielplatz;51.90213021970665;7.667944437334888;BC-0: BC-Bereich ohne Ballspielangebot;29505;40;29505;Tischtennisplatte;;Beton;40 29505 SP DAHLIENWEG
235;SP AM ROGGENKAMP;Spielplatz;51.90198392038654;7.671087684827654;A-1: A-Bereich mit Ballspielangebot;29506;40;29506;Tischtennisplatte;;Beton;40 29506 SP AM ROGGENKAMP
236;ALBERT-SCHWEITZER-SCHULE;Spielplatz;51.9588697475505;7.657436579546089;BC-1: BC-Bereich mit Ballspielangebot;24404;40;64401;Tischtennisplatte;;;40 64401 ALBERT-SCHWEITZER-SCHULE, Manfred-von-Richthofen-Str.49
237;MATHILDE-ANNEKE-GESAMTSCHULE;Schule;51.95822251357923;7.6536086211458585;Gesamtschule;114;40;64402;Tischtennisplatte;;Beton;40 64402 MATHILDE-ANNEKE-GESAMTSCHULE, AndreasHofer-Straße 30
238;MATHILDE-ANNEKE-GESAMTSCHULE;Schule;51.95822251357923;7.6536086211458585;Gesamtschule;114;40;64402;Tischtennisplatte;;Beton;40 64402 MATHILDE-ANNEKE-GESAMTSCHULE, AndreasHofer-Straße 30
239;OBERSTUFENHAUS MATHILDE-ANNEKE-GESAMTSCHULE;Schule;51.958014827121744;7.655177183651633;;;40;64403;Tischtennisplatte (bei Kletterwand);;Beton;40 64403 OBERSTUFENHAUS MATHILDE-ANNEKE-GESAMTSCHULE, Manfred-von-Richthofen-Str.42
240;OBERSTUFENHAUS MATHILDE-ANNEKE-GESAMTSCHULE;Schule;51.958014827121744;7.655177183651633;;;40;64403;Tischtennisplatte (Technikraum);;Beton;40 64403 OBERSTUFENHAUS MATHILDE-ANNEKE-GESAMTSCHULE, Manfred-von-Richthofen-Str.42
241;OBERSTUFENHAUS MATHILDE-ANNEKE-GESAMTSCHULE;Schule;51.958014827121744;7.655177183651633;;;40;64403;Tischtennisplatte;;Beton;40 64403 OBERSTUFENHAUS MATHILDE-ANNEKE-GESAMTSCHULE, Manfred-von-Richthofen-Str.42
242;MAURITZ-SCHULE;Schule;51.96359784311193;7.649722920034181;Grundschule;27;40;64501;Tischtennisplatte;;Beton;40 64501 MAURITZ-SCHULE, Stiftsstr. 19
243;MAURITZ-SCHULE;Schule;51.96359784311193;7.649722920034181;Grundschule;27;40;64501;Tischtennisplatte;;Beton;40 64501 MAURITZ-SCHULE, Stiftsstr. 19
244;MAURITZ-SCHULE;Schule;51.96359784311193;7.649722920034181;Grundschule;27;40;64501;Tischtennisplatte;;Beton;40 64501 MAURITZ-SCHULE, Stiftsstr. 19
245;PÖTTERHOEKSCHULE;Schule;51.97251741260564;7.653951899081711;Grundschule;12;40;64502;Tischtennisplatte;;Beton;40 64502 PÖTTERHOEKSCHULE, PÖTTERHOOK 49
246;ERICH-KÄSTNER-SCHULE;Schule;51.97343055408543;7.653633497915167;Förderschule;51;40;64503;Tischtennisplatte;;Beton;40 64503 ERICH-KÄSTNER-SCHULE, Pötterhoek 44
247;PLEISTER-SCHULE;Schule;51.9633952090482;7.677824821763299;Grundschule;22;40;67101;Tischtennisplatte (Basketballständer);;Beton;40 67101 PLEISTER-SCHULE
248;PLEISTER-SCHULE;Schule;51.9633952090482;7.677824821763299;Grundschule;22;40;67101;Tischtennisplatte;;Beton;40 67101 PLEISTER-SCHULE
249;MARGARETEN-SCHULE;Spielplatz;51.95243408523824;7.673768520503377;BC-0: BC-Bereich ohne Ballspielangebot;27103;40;67102;Tischtennisplatte;;Beton;40 67102 MARGARETEN-SCHULE, BRENTANOWEG 18
250;R.-VON-WEIZSÄCKER-SCHULE;Schule;51.94355325904727;7.601030735786032;;;40;67103;Tischtennisplatte;;Beton;40 67103 R.-VON-WEIZSÄCKER-SCHULE, LAERER LANDWEG 153
251;R.-VON-WEIZSÄCKER-SCHULE;Schule;51.94355325904727;7.601030735786032;;;40;67103;Tischtennisplatte;;Sonstige;40 67103 R.-VON-WEIZSÄCKER-SCHULE, LAERER LANDWEG 153
252;GRUNDSCHULE GELMER;Schule;52.02950444098261;7.675208335104652;;;40;67601;Tischtennisplatte rund;;Beton;40 67601 GRUNDSCHULE GELMER, Gelmerheide 3
253;GRUNDSCHULE GELMER;Schule;52.02950444098261;7.675208335104652;;;40;67601;Tischtennisplatte;;Beton;40 67601 GRUNDSCHULE GELMER, Gelmerheide 3
254;MATTHIAS-CLAUDIUS-SCHULE HANDORF;Schule;51.989761242562366;7.703283343850582;Grundschule;3;40;67701;Tischtennisplatte (Einfahrt);;Beton;40 67701 MATTHIAS-CLAUDIUS-SCHULE HANDORF, Drostestraße 7
255;MATTHIAS-CLAUDIUS-SCHULE HANDORF;Schule;51.989761242562366;7.703283343850582;Grundschule;3;40;67701;Tischtennisplatte (Papierkorb);;Beton;40 67701 MATTHIAS-CLAUDIUS-SCHULE HANDORF, Drostestraße 7
256;KARDINAL-VON-GALEN SCHULE;Schule;51.98807720723628;7.7005368388094295;Grundschule;33;40;67702;Tischtennisplatte rund;;Beton;40 67702 KARDINAL-VON-GALEN SCHULE, LUDWIG-WOLKER-STRASSE 13
257;KARDINAL-VON-GALEN SCHULE;Schule;51.98807720723628;7.7005368388094295;Grundschule;33;40;67702;Tischtennisplatte (rechts);;Beton;40 67702 KARDINAL-VON-GALEN SCHULE, LUDWIG-WOLKER-STRASSE 13
258;KARDINAL-VON-GALEN SCHULE;Schule;51.98807720723628;7.7005368388094295;Grundschule;33;40;67702;Tischtennisplatte (links);;Beton;40 67702 KARDINAL-VON-GALEN SCHULE, LUDWIG-WOLKER-STRASSE 13
259;IDASCHULE;Spielplatz;51.93231007900058;7.672697134817798;BC-0: BC-Bereich ohne Ballspielangebot;28205;40;68201;Tischtennisplatte;;Stein;40 68201 IDASCHULE, VÖRNSTE ESCH 19
260;IDASCHULE;Spielplatz;51.93231007900058;7.672697134817798;BC-0: BC-Bereich ohne Ballspielangebot;28205;40;68201;Tischtennisplatte;;Stein;40 68201 IDASCHULE, VÖRNSTE ESCH 19
261;PESTALOZZISCHULE;Schule;51.93109745971898;7.66696209967985;;;40;68202;Tischtennisplatte;;Beton;40 68202 PESTALOZZISCHULE, ANTON-KNUBEL-WEG 10-12
262;EICHENDORFF-SCHULE;Spielplatz;51.91454161175453;7.696009960007773;BC-0: BC-Bereich ohne Ballspielangebot;28607;40;68601;Tischtennisplatte;;Beton;40 68601 EICHENDORFF-SCHULE
263;EICHENDORFF-SCHULE;Spielplatz;51.91454161175453;7.696009960007773;BC-0: BC-Bereich ohne Ballspielangebot;28607;40;68601;Tischtennisplatte;;Beton;40 68601 EICHENDORFF-SCHULE
264;ANNETTE-VON-DROSTE-HÜLSHOFF-SCHULE ANGELM.;Schule;51.92123581977076;7.6805453323376955;Grundschule;44;40;68602;Tischtennisplatte;;Beton;40 68602 ANNETTE-VON-DROSTE-HÜLSHOFF-SCHULE ANGELM.
265;SCHULZENTRUM WOLBECK (HS;Schule;51.913875;7.719252;;;40;68701;Tischtennisplatte;;Beton;40 68701 SCHULZENTRUM WOLBECK (HS, RS, Gym.)
266;SCHULZENTRUM WOLBECK (HS;Schule;51.913875;7.719252;;;40;68701;Tischtennisplatte (Torwand);;Beton;40 68701 SCHULZENTRUM WOLBECK (HS, RS, Gym.)
267;SCHULZENTRUM WOLBECK (HS;Schule;51.913875;7.719252;;;40;68701;Tischtennisplatte;;Beton;40 68701 SCHULZENTRUM WOLBECK (HS, RS, Gym.)
268;SCHULZENTRUM WOLBECK (HS;Schule;51.913875;7.719252;;;40;68701;Tischtennisplatte (Betonstufenanlage);;Beton;40 68701 SCHULZENTRUM WOLBECK (HS, RS, Gym.)
269;SCHULZENTRUM WOLBECK (HS;Schule;51.913875;7.719252;;;40;68701;Tischtennisplatte (mitte);;Beton;40 68701 SCHULZENTRUM WOLBECK (HS, RS, Gym.)
270;SCHULZENTRUM WOLBECK (HS;Schule;51.913875;7.719252;;;40;68701;Tischtennisplatte;;Beton;40 68701 SCHULZENTRUM WOLBECK (HS, RS, Gym.)
271;SCHULZENTRUM WOLBECK (HS;Schule;51.913875;7.719252;;;40;68701;Tischtennisplatte (links);;Beton;40 68701 SCHULZENTRUM WOLBECK (HS, RS, Gym.)
272;SCHULZENTRUM WOLBECK (HS;Schule;51.913875;7.719252;;;40;68701;Tischtennisplatte;;Beton;40 68701 SCHULZENTRUM WOLBECK (HS, RS, Gym.)
273;SCHULZENTRUM WOLBECK (HS;Schule;51.913875;7.719252;;;40;68701;Tischtennisplatte (Fahrradständer);;Beton;40 68701 SCHULZENTRUM WOLBECK (HS, RS, Gym.)
274;NIKOLAISCHULE;Schule;51.91540558109518;7.72904261832517;Grundschule;25;40;68704;Tischtennisplatte;;Beton;40 68704 NIKOLAISCHULE
275;NIKOLAISCHULE;Schule;51.91540558109518;7.72904261832517;Grundschule;25;40;68704;Tischtennisplatte;;Beton;40 68704 NIKOLAISCHULE
276;MARIEN-SCHULE HILTRUP;Schule;51.90724978065139;7.666132493208336;Grundschule;30;40;69501;Tischtennisplatte (rechts);;Beton;40 69501 MARIEN-SCHULE HILTRUP, LODDENWEG 12
277;MARIEN-SCHULE HILTRUP;Schule;51.90724978065139;7.666132493208336;Grundschule;30;40;69501;Tischtennisplatte (links);;Beton;40 69501 MARIEN-SCHULE HILTRUP, LODDENWEG 12
278;UNTERKUNFT WARENDORFER STR. 265;Sonstige;51.971664;7.667721;;;40;87103;Tischtennisplatte;2015;Beton;40 87103 UNTERKUNFT WARENDORFER STR. 265, 267, 269
279;JUGENEINRICHTUNG DREI EICHEN;Sonstige;51.995272982349675;7.71283665258779;;;40;87706;Tischtennisplatte;;Beton;40 87706 JUGENEINRICHTUNG DREI EICHEN
